[
  { "id": 1, "name": "LimpiaMadrid Pro", "service": "cleaning", "location": "madrid", "address": "Calle Gran Vía 15, Madrid", "lat": 40.4200, "lng": -3.7025, "priceRange": "€25–€45/hr", "rating": 4.8, "reviews": 312, "contact": "https://wa.me/34600000001", "contactType": "whatsapp" },
  { "id": 2, "name": "Brillo Total", "service": "cleaning", "location": "madrid", "address": "Calle Alcalá 40, Madrid", "lat": 40.4189, "lng": -3.6916, "priceRange": "€20–€35/hr", "rating": 4.5, "reviews": 189, "contact": "tel:+34600000002", "contactType": "call" },
  { "id": 3, "name": "CleanGetafe", "service": "cleaning", "location": "getafe", "address": "Calle Madrid 10, Getafe", "lat": 40.3056, "lng": -3.7314, "priceRange": "€18–€30/hr", "rating": 4.7, "reviews": 97, "contact": "https://wa.me/34600000003", "contactType": "whatsapp" },
  { "id": 4, "name": "SparkleHome", "service": "cleaning", "location": "getafe", "address": "Avenida de España 5, Getafe", "lat": 40.3089, "lng": -3.7298, "priceRange": "€22–€40/hr", "rating": 4.6, "reviews": 54, "contact": "tel:+34600000004", "contactType": "call" },
  { "id": 5, "name": "EcoClean Madrid", "service": "cleaning", "location": "madrid", "address": "Calle Serrano 25, Madrid", "lat": 40.4280, "lng": -3.6884, "priceRange": "€30–€55/hr", "rating": 4.9, "reviews": 421, "contact": "https://wa.me/34600000005", "contactType": "whatsapp" },
  { "id": 6, "name": "FontaneroRápido", "service": "plumbing", "location": "madrid", "address": "Calle Fuencarral 80, Madrid", "lat": 40.4265, "lng": -3.7015, "priceRange": "€60–€120/visit", "rating": 4.7, "reviews": 203, "contact": "tel:+34600000006", "contactType": "call" },
  { "id": 7, "name": "AguaFácil", "service": "plumbing", "location": "getafe", "address": "Calle Toledo 33, Getafe", "lat": 40.3112, "lng": -3.7256, "priceRange": "€50–€100/visit", "rating": 4.4, "reviews": 88, "contact": "https://wa.me/34600000007", "contactType": "whatsapp" },
  { "id": 8, "name": "PlomeroExpress", "service": "plumbing", "location": "madrid", "address": "Calle Atocha 55, Madrid", "lat": 40.4138, "lng": -3.6952, "priceRange": "€70–€150/visit", "rating": 4.8, "reviews": 315, "contact": "tel:+34600000008", "contactType": "call" },
  { "id": 9, "name": "FríoCalor Madrid", "service": "aircon", "location": "madrid", "address": "Paseo de la Castellana 100, Madrid", "lat": 40.4459, "lng": -3.6927, "priceRange": "€80–€150/unit", "rating": 4.6, "reviews": 176, "contact": "https://wa.me/34600000009", "contactType": "whatsapp" },
  { "id": 10, "name": "ClimaMadrid", "service": "aircon", "location": "madrid", "address": "Calle Princesa 20, Madrid", "lat": 40.4301, "lng": -3.7112, "priceRange": "€70–€130/unit", "rating": 4.5, "reviews": 92, "contact": "tel:+34600000010", "contactType": "call" },
  { "id": 11, "name": "AireGetafe", "service": "aircon", "location": "getafe", "address": "Calle Juan de la Cierva 8, Getafe", "lat": 40.3134, "lng": -3.7198, "priceRange": "€65–€120/unit", "rating": 4.7, "reviews": 61, "contact": "https://wa.me/34600000011", "contactType": "whatsapp" },
  { "id": 12, "name": "PintorMadrid", "service": "painting", "location": "madrid", "address": "Calle Hortaleza 45, Madrid", "lat": 40.4234, "lng": -3.6978, "priceRange": "€15–€25/m²", "rating": 4.5, "reviews": 134, "contact": "tel:+34600000012", "contactType": "call" },
  { "id": 13, "name": "ColorGetafe", "service": "painting", "location": "getafe", "address": "Avenida del Sur 12, Getafe", "lat": 40.3067, "lng": -3.7334, "priceRange": "€12–€22/m²", "rating": 4.3, "reviews": 67, "contact": "https://wa.me/34600000013", "contactType": "whatsapp" },
  { "id": 14, "name": "ElectroMadrid", "service": "electrician", "location": "madrid", "address": "Calle Velázquez 60, Madrid", "lat": 40.4256, "lng": -3.6856, "priceRange": "€55–€110/visit", "rating": 4.8, "reviews": 258, "contact": "tel:+34600000014", "contactType": "call" },
  { "id": 15, "name": "VoltaGetafe", "service": "electrician", "location": "getafe", "address": "Calle Leganés 7, Getafe", "lat": 40.3078, "lng": -3.7289, "priceRange": "€50–€90/visit", "rating": 4.6, "reviews": 103, "contact": "https://wa.me/34600000015", "contactType": "whatsapp" }
]